$GLGSV,3,2,10,77,79,228,,78,29,328,,81,07,248,,86,01,043,,1*7B
$GLGSV,3,3,10,87,36,008,,88,42,291,,1*77
$GAGSV,1,1,00,7*73
$GBGSV,5,1,19,01,47,124,,02,45,233,,03,62,189,,04,33,110,,1*7D
$GBGSV,5,2,19,05,23,253,,06,26,201,,07,62,357,,08,44,176,,1*72
$GBGSV,5,3,19,09,33,217,,10,54,333,,11,52,355,,12,17,048,,1*7B
$GBGSV,5,4,19,13,36,186,23,16,23,197,26,21,17,082,,23,41,303,,1*70
$GBGSV,5,5,19,24,20,161,19,25,62,213,15,28,09,262,,1*46
$GNGLL,2236.01634,N,11400.47533,E,012916.00,A,A*7D
$GNRMC,012917.00,A,2236.01619,N,11400.47584,E,0.937,,100624,,,A,V*10
$GNVTG,,T,,M,0.937,N,1.735,K,A*30
$GNGGA,012917.00,2236.01619,N,11400.47584,E,1,06,2.80,172.1,M,-2.5,M,,*59
$GNGSA,A,3,03,07,,,,,,,,,,,4.00,2.80,2.86,1*07
$GNGSA,A,3,76,,,,,,,,,,,,4.00,2.80,2.86,2*01
$GNGSA,A,3,,,,,,,,,,,,,4.00,2.80,2.86,3*01
$GNGSA,A,3,16,24,13,,,,,,,,,,4.00,2.80,2.86,4*05
$GPGSV,3,1,12,02,20,039,,03,44,085,16,06,39,242,,07,17,183,18,1*6C
$GPGSV,3,2,12,09,00,160,,11,03,229,,14,78,355,,17,45,337,,1*6B
$GPGSV,3,3,12,19,29,305,,21,06,044,,22,53,333,,30,34,214,18,1*68
$GLGSV,3,1,10,65,04,149,,71,03,052,,72,11,096,,76,36,164,17,1*79
$GLGSV,3,2,10,77,79,228,,78,29,328,,81,07,248,,86,01,043,,1*7B
$GLGSV,3,3,10,87,36,008,,88,42,291,,1*77
$GAGSV,1,1,00,7*73
$GBGSV,5,1,19,01,47,124,,02,45,233,,03,62,189,,04,33,110,,1*7D
$GBGSV,5,2,19,05,23,253,,06,26,201,,07,62,357,,08,44,176,,1*72
$GBGSV,5,3,19,09,33,217,,10,54,333,,11,52,355,,12,17,048,,1*7B
$GBGSV,5,4,19,13,36,186,23,16,23,197,26,21,17,082,,23,41,303,,1*70
$GBGSV,5,5,19,24,20,161,20,25,62,213,15,28,09,262,,1*4C
$GNGLL,2236.01619,N,11400.47584,E,012917.00,A,A*7F
$GNRMC,012918.00,A,2236.01564,N,11400.47594,E,0.605,,100624,,,A,V*19
$GNVTG,,T,,M,0.605,N,1.121,K,A*3D
$GNGGA,012918.00,2236.01564,N,11400.47594,E,1,06,2.80,171.6,M,-2.5,M,,*5A
$GNGSA,A,3,03,07,,,,,,,,,,,4.00,2.80,2.85,1*04
$GNGSA,A,3,76,,,,,,,,,,,,4.00,2.80,2.85,2*02
$GNGSA,A,3,,,,,,,,,,,,,4.00,2.80,2.85,3*02
$GNGSA,A,3,16,24,13,,,,,,,,,,4.00,2.80,2.85,4*06
$GPGSV,3,1,12,02,20,039,,03,44,085,16,06,39,242,,07,17,183,18,1*6C
$GPGSV,3,2,12,09,00,160,,11,03,229,,14,78,355,,17,45,337,,1*6B
$GPGSV,3,3,12,19,29,305,,21,05,044,,22,53,333,,30,34,214,17,1*64
$GLGSV,3,1,10,65,04,149,,71,03,052,,72,11,096,,76,36,164,18,1*76
$GLGSV,3,2,10,77,79,228,,78,29,328,,81,07,248,,86,01,043,,1*7B
$GLGSV,3,3,10,87,36,008,,88,42,291,,1*77
$GAGSV,1,1,00,7*73
$GBGSV,5,1,19,01,47,124,,02,45,233,,03,62,189,,04,33,110,,1*7D
$GBGSV,5,2,19,05,23,253,,06,26,201,,07,62,357,,08,44,176,,1*72
$GBGSV,5,3,19,09,33,217,,10,54,333,,11,52,355,,12,17,048,,1*7B
$GBGSV,5,4,19,13,36,186,23,16,23,197,26,21,17,082,,23,41,303,,1*70
$GBGSV,5,5,19,24,20,161,19,25,62,213,16,28,09,262,,1*45
$GNGLL,2236.01564,N,11400.47594,E,012918.00,A,A*78
$GNRMC,012919.00,A,2236.01538,N,11400.47656,E,0.939,,100624,,,A,V*1C
$GNVTG,,T,,M,0.939,N,1.738,K,A*33
$GNGGA,012919.00,2236.01538,N,11400.47656,E,1,06,2.80,170.7,M,-2.5,M,,*5F
$GNGSA,A,3,03,07,,,,,,,,,,,3.99,2.80,2.85,1*03
$GNGSA,A,3,76,,,,,,,,,,,,3.99,2.80,2.85,2*05
$GNGSA,A,3,,,,,,,,,,,,,3.99,2.80,2.85,3*05
$GNGSA,A,3,16,24,13,,,,,,,,,,3.99,2.80,2.85,4*01
$GPGSV,3,1,12,02,20,039,,03,44,085,16,06,39,242,,07,17,183,18,1*6C
$GPGSV,3,2,12,09,00,160,,11,03,229,,14,78,355,,17,45,337,,1*6B
$GPGSV,3,3,12,19,29,305,,21,05,044,,22,54,333,,30,34,214,17,1*63
$GLGSV,3,1,10,65,04,149,,71,03,052,,72,11,096,,76,36,164,18,1*76
$GLGSV,3,2,10,77,79,228,,78,29,328,,81,07,248,,86,01,043,,1*7B
$GLGSV,3,3,10,87,36,008,,88,42,291,,1*77
$GAGSV,1,1,00,7*73
$GBGSV,5,1,19,01,47,124,,02,45,233,,03,62,189,,04,33,110,,1*7D
$GBGSV,5,2,19,05,23,253,,06,26,201,,07,62,357,,08,44,176,,1*72
$GBGSV,5,3,19,09,33,217,,10,54,333,,11,52,355,,12,17,048,,1*7B
$GBGSV,5,4,19,13,36,186,23,16,23,197,26,21,17,082,,23,41,303,,1*70
$GBGSV,5,5,19,24,20,161,20,25,62,213,15,28,09,262,,1*4C
$GNGLL,2236.01538,N,11400.47656,E,012919.00,A,A*7D
$GNRMC,012920.00,A,2236.01511,N,11400.47680,E,0.758,,100624,,,A,V*1F
$GNVTG,,T,,M,0.758,N,1.403,K,A*31
$GNGGA,012920.00,2236.01511,N,11400.47680,E,1,06,2.79,169.8,M,-2.5,M,,*54
$GNGSA,A,3,03,07,,,,,,,,,,,3.99,2.79,2.85,1*05
$GNGSA,A,3,76,,,,,,,,,,,,3.99,2.79,2.85,2*03
$GNGSA,A,3,,,,,,,,,,,,,3.99,2.79,2.85,3*03
$GNGSA,A,3,16,24,13,,,,,,,,,,3.99,2.79,2.85,4*07
$GPGSV,3,1,12,02,20,039,,03,44,085,16,06,39,242,,07,17,183,17,1*63
$GPGSV,3,2,12,09,00,160,,11,03,229,,14,78,355,,17,45,337,,1*6B
$GPGSV,3,3,12,19,29,305,,21,05,044,,22,54,333,,30,34,214,16,1*62
$GLGSV,3,1,10,65,04,149,,71,03,052,,72,11,096,,76,36,164,19,1*77
$GLGSV,3,2,10,77,79,228,,78,29,328,,81,07,248,,86,01,043,,1*7B
$GLGSV,3,3,10,87,36,008,,88,42,291,,1*77
$GAGSV,1,1,00,7*73
$GBGSV,5,1,19,01,47,124,,02,45,233,,03,62,189,,04,33,110,,1*7D
$GBGSV,5,2,19,05,23,253,,06,26,201,,07,62,357,,08,44,176,,1*72
$GBGSV,5,3,19,09,33,217,,10,54,333,,11,52,355,,12,17,048,,1*7B
$GBGSV,5,4,19,13,36,186,23,16,23,197,26,21,17,082,,23,41,303,,1*70
$GBGSV,5,5,19,24,20,161,21,25,62,213,15,28,09,262,,1*4D
$GNGLL,2236.01511,N,11400.47680,E,012920.00,A,A*77
$GNRMC,012921.00,A,2236.01512,N,11400.47693,E,0.712,,100624,,,A,V*11
$GNVTG,,T,,M,0.712,N,1.318,K,A*32
$GNGGA,012921.00,2236.01512,N,11400.47693,E,1,06,2.79,169.1,M,-2.5,M,,*5D
$GNGSA,A,3,03,07,,,,,,,,,,,3.99,2.79,2.85,1*05
$GNGSA,A,3,76,,,,,,,,,,,,3.99,2.79,2.85,2*03
$GNGSA,A,3,,,,,,,,,,,,,3.99,2.79,2.85,3*03
$GNGSA,A,3,16,24,13,,,,,,,,,,3.99,2.79,2.85,4*07
$GPGSV,3,1,12,02,20,039,,03,44,085,16,06,39,242,,07,17,183,18,1*6C
$GPGSV,3,2,12,09,00,160,,11,03,229,,14,78,355,,17,45,337,,1*6B
$GPGSV,3,3,12,19,29,305,,21,05,044,,22,54,333,,30,34,214,17,1*63
$GLGSV,3,1,10,65,04,149,,71,03,052,,72,11,096,,76,36,164,19,1*77
$GLGSV,3,2,10,77,79,228,,78,29,328,,81,07,248,,86,01,043,,1*7B
$GLGSV,3,3,10,87,36,008,,88,42,291,,1*77
$GAGSV,1,1,00,7*73
$GBGSV,5,1,19,01,47,124,,02,45,233,,03,62,189,,04,33,110,,1*7D
$GBGSV,5,2,19,05,23,253,,06,26,201,,07,62,357,,08,44,176,,1*72
$GBGSV,5,3,19,09,33,217,,10,54,333,,11,52,355,,12,17,048,,1*7B
$GBGSV,5,4,19,13,36,186,23,16,23,197,26,21,17,082,,23,41,303,,1*70
$GBGSV,5,5,19,24,20,161,20,25,62,213,16,28,09,262,,1*4F
$GNGLL,2236.01512,N,11400.47693,E,012921.00,A,A*77
$GNRMC,012922.00,A,2236.01439,N,11400.47785,E,1.180,,100624,,,A,V*10
$GNVTG,,T,,M,1.180,N,2.185,K,A*3B
$GNGGA,012922.00,2236.01439,N,11400.47785,E,1,06,2.79,168.1,M,-2.5,M,,*51
$GNGSA,A,3,03,07,,,,,,,,,,,3.99,2.79,2.85,1*05
$GNGSA,A,3,76,,,,,,,,,,,,3.99,2.79,2.85,2*03
$GNGSA,A,3,,,,,,,,,,,,,3.99,2.79,2.85,3*03
$GNGSA,A,3,16,24,13,,,,,,,,,,3.99,2.79,2.85,4*07
$GPGSV,3,1,12,02,20,039,,03,44,085,17,06,39,242,,07,17,183,19,1*6C
$GPGSV,3,2,12,09,00,160,,11,03,229,,14,78,355,,17,45,337,,1*6B
$GPGSV,3,3,12,19,29,305,,21,05,044,,22,54,333,,30,34,214,17,1*63
$GLGSV,3,1,10,65,04,149,,71,03,052,,72,11,096,,76,36,164,18,1*76
$GLGSV,3,2,10,77,79,228,,78,29,328,,81,07,248,,86,01,043,,1*7B
$GLGSV,3,3,10,87,36,008,,88,42,291,,1*77
$GAGSV,1,1,00,7*73
$GBGSV,5,1,19,01,47,124,,02,45,233,,03,62,189,,04,33,110,,1*7D
$GBGSV,5,2,19,05,23,253,,06,26,201,,07,62,357,,08,44,176,,1*72
$GBGSV,5,3,19,09,33,217,,10,54,333,,11,51,355,,12,17,048,,1*78
$GBGSV,5,4,19,13,36,186,23,16,23,197,26,21,17,082,,23,41,303,,1*70
$GBGSV,5,5,19,24,20,161,21,25,62,213,16,28,09,262,,1*4E
$GNGLL,2236.01439,N,11400.47785,E,012922.00,A,A*7A
$GNRMC,012923.00,A,2236.01363,N,11400.47807,E,1.098,,100624,,,A,V*14
$GNVTG,,T,,M,1.098,N,2.034,K,A*38
$GNGGA,012923.00,2236.01363,N,11400.47807,E,1,06,2.79,167.4,M,-2.5,M,,*57
$GNGSA,A,3,03,07,,,,,,,,,,,3.99,2.79,2.85,1*05
$GNGSA,A,3,76,,,,,,,,,,,,3.99,2.79,2.85,2*03
$GNGSA,A,3,,,,,,,,,,,,,3.99,2.79,2.85,3*03
$GNGSA,A,3,16,24,13,,,,,,,,,,3.99,2.79,2.85,4*07
$GPGSV,3,1,12,02,20,039,,03,44,085,18,06,39,242,,07,17,183,20,1*69
$GPGSV,3,2,12,09,00,160,,11,03,229,,14,78,355,,17,45,337,,1*6B
$GPGSV,3,3,12,19,29,305,,21,05,044,,22,54,333,,30,34,214,18,1*6C
$GLGSV,3,1,10,65,04,149,,71,03,052,,72,11,096,,76,36,164,18,1*76
$GLGSV,3,2,10,77,79,228,,78,29,328,,81,07,248,,86,01,043,,1*7B
$GLGSV,3,3,10,87,36,008,,88,42,291,,1*77
$GAGSV,1,1,00,7*73
$GBGSV,5,1,19,01,47,124,,02,45,233,,03,62,189,,04,33,110,,1*7D
$GBGSV,5,2,19,05,23,253,,06,26,201,,07,62,357,,08,44,176,,1*72
$GBGSV,5,3,19,09,33,217,,10,54,333,,11,51,355,,12,17,048,,1*78
$GBGSV,5,4,19,13,36,186,23,16,23,197,26,21,17,082,,23,41,303,,1*70
$GBGSV,5,5,19,24,20,161,21,25,62,213,16,28,09,262,,1*4E
$GNGLL,2236.01363,N,11400.47807,E,012923.00,A,A*76
$GNRMC,012924.00,A,2236.01302,N,11400.47820,E,1.073,,100624,,,A,V*14
$GNVTG,,T,,M,1.073,N,1.986,K,A*3E
$GNGGA,012924.00,2236.01302,N,11400.47820,E,1,06,2.79,167.0,M,-2.5,M,,*56
$GNGSA,A,3,03,07,,,,,,,,,,,3.99,2.79,2.85,1*05
$GNGSA,A,3,76,,,,,,,,,,,,3.99,2.79,2.85,2*03
$GNGSA,A,3,,,,,,,,,,,,,3.99,2.79,2.85,3*03
$GNGSA,A,3,16,24,13,,,,,,,,,,3.99,2.79,2.85,4*07
$GPGSV,3,1,12,02,20,039,,03,44,085,17,06,39,242,,07,17,183,20,1*66
$GPGSV,3,2,12,09,00,160,,11,03,229,,14,78,355,,17,45,337,,1*6B
$GPGSV,3,3,12,19,29,305,,21,05,044,,22,54,333,,30,34,214,19,1*6D
$GLGSV,3,1,10,65,04,149,,71,03,052,,72,11,096,,76,36,164,18,1*76
$GLGSV,3,2,10,77,79,228,,78,29,328,,81,07,248,,86,01,043,,1*7B
$GLGSV,3,3,10,87,36,008,,88,42,291,,1*77
$GAGSV,1,1,00,7*73
$GBGSV,5,1,19,01,47,124,,02,45,233,,03,62,189,,04,33,110,,1*7D
$GBGSV,5,2,19,05,23,253,,06,26,201,,07,62,357,,08,44,176,,1*72
$GBGSV,5,3,19,09,33,217,,10,54,333,,11,51,355,,12,17,048,,1*78
$GBGSV,5,4,19,13,36,186,23,16,23,197,26,21,17,082,,23,41,303,,1*70
$GBGSV,5,5,19,24,20,161,21,25,62,213,17,28,09,262,,1*4F
$GNGLL,2236.01302,N,11400.47820,E,012924.00,A,A*73
$GNRMC,012925.00,A,2236.01319,N,11400.47824,E,0.721,,100624,,,A,V*1A
$GNVTG,,T,,M,0.721,N,1.336,K,A*3E
$GNGGA,012925.00,2236.01319,N,11400.47824,E,1,06,2.79,166.8,M,-2.5,M,,*50
$GNGSA,A,3,03,07,,,,,,,,,,,3.99,2.79,2.85,1*05
$GNGSA,A,3,76,,,,,,,,,,,,3.99,2.79,2.85,2*03
$GNGSA,A,3,,,,,,,,,,,,,3.99,2.79,2.85,3*03
$GNGSA,A,3,16,24,13,,,,,,,,,,3.99,2.79,2.85,4*07
$GPGSV,3,1,12,02,20,039,,03,44,085,17,06,39,242,,07,17,183,21,1*67
$GPGSV,3,2,12,09,00,160,,11,03,229,,14,78,355,,17,45,337,,1*6B
$GPGSV,3,3,12,19,29,305,,21,05,044,,22,54,333,,30,34,214,18,1*6C
$GLGSV,3,1,10,65,04,149,,71,03,052,,72,11,096,,76,36,164,18,1*76
$GLGSV,3,2,10,77,79,228,,78,29,328,,81,07,248,,86,01,043,,1*7B
$GLGSV,3,3,10,87,36,008,,88,42,291,,1*77
$GAGSV,1,1,00,7*73
$GBGSV,5,1,19,01,47,124,,02,45,233,,03,62,189,,04,33,110,,1*7D
$GBGSV,5,2,19,05,23,253,,06,26,201,,07,62,357,,08,44,176,,1*72
$GBGSV,5,3,19,09,33,217,,10,54,333,,11,51,355,,12,17,048,,1*78
$GBGSV,5,4,19,13,36,186,23,16,23,197,27,21,17,082,,23,41,303,,1*71
$GBGSV,5,5,19,24,20,161,21,25,62,213,17,28,09,262,,1*4F
$GNGLL,2236.01319,N,11400.47824,E,012925.00,A,A*7C
$GNRMC,012926.00,A,2236.01294,N,11400.47833,E,0.908,,100624,,,A,V*1E
$GNVTG,,T,,M,0.908,N,1.681,K,A*32
$GNGGA,012926.00,2236.01294,N,11400.47833,E,1,06,2.79,166.6,M,-2.5,M,,*5F
$GNGSA,A,3,03,07,,,,,,,,,,,3.99,2.79,2.85,1*05
$GNGSA,A,3,76,,,,,,,,,,,,3.99,2.79,2.85,2*03
$GNGSA,A,3,,,,,,,,,,,,,3.99,2.79,2.85,3*03
$GNGSA,A,3,16,24,13,,,,,,,,,,3.99,2.79,2.85,4*07
$GPGSV,3,1,12,02,20,039,,03,44,085,17,06,39,242,,07,17,183,20,1*66
$GPGSV,3,2,12,09,00,160,,11,03,229,,14,78,355,,17,45,337,,1*6B
$GPGSV,3,3,12,19,29,305,,21,05,044,,22,54,333,,30,33,213,18,1*6C
$GLGSV,3,1,10,65,04,149,,71,03,052,,72,11,096,,76,36,164,18,1*76
$GLGSV,3,2,10,77,79,228,,78,29,328,,81,07,248,,86,01,043,,1*7B
$GLGSV,3,3,10,87,36,008,,88,42,291,,1*77
$GAGSV,1,1,00,7*73
$GBGSV,5,1,19,01,47,124,,02,45,233,,03,62,189,,04,33,110,,1*7D
$GBGSV,5,2,19,05,23,253,,06,26,201,,07,62,357,,08,44,176,,1*72
$GBGSV,5,3,19,09,33,217,,10,54,333,,11,51,355,,12,17,048,,1*78
$GBGSV,5,4,19,13,36,186,23,16,23,197,26,21,17,082,,23,41,303,,1*70
$GBGSV,5,5,19,24,20,161,20,25,62,213,16,28,09,262,,1*4F
$GNGLL,2236.01294,N,11400.47833,E,012926.00,A,A*7D

